Plant,Plant Name,Plant_Country,Plant_State,Plant_City,Plant_Latitude,Plant_Longitude,Plant Manager
SP001,Sorocaba,BR,SP,Sorocaba,-23.43386009,-47.39248995,Peter Stephen
SC012,Blumenau,BR,SC,Indaial,-26.92769509,-49.23557694,Milena Vurtz
ES023,Vitoria,BR,ES,Porto Real,-22.44006913,-44.31782419,Alirio Cardoso
GO034,Aparecida de Goiânia,BR,GO,Aparecida de Goiânia,-16.85814688,-49.23005166,Pamela Correia
BA045,Itapuã,BR,BA,Itapuã,-12.93654013,-38.36048758,Julio Neto
MG056,Betim,BR,MG,Betim,-19.97320984,-44.20398415,Rosi Moraes
